{
"type": "FeatureCollection",
"name": "GeoJson_SRC",
"crs": { "type": "name", "properties": { "name": "urn:ogc:def:crs:OGC:1.3:CRS84" } },
"features": [
{ "type": "Feature", "properties": { "Place Name": "Alipurduar, West Bengal, India", "Longitude": 89.5271, "Latitude": 26.49189 }, "geometry": { "type": "Point", "coordinates": [ 89.5271, 26.49189 ] } },
{ "type": "Feature", "properties": { "Place Name": "Ambernath, Maharashtra, India", "Longitude": 73.191948, "Latitude": 19.186354 }, "geometry": { "type": "Point", "coordinates": [ 73.191948, 19.186354 ] } },
{ "type": "Feature", "properties": { "Place Name": "Anakaputhur, Sriperumbudur, Tamil Nadu, India", "Longitude": 79.959244, "Latitude": 12.946366 }, "geometry": { "type": "Point", "coordinates": [ 79.959244, 12.946366 ] } },
{ "type": "Feature", "properties": { "Place Name": "Ausa, Maharashtra, India", "Longitude": 76.505356, "Latitude": 18.245655 }, "geometry": { "type": "Point", "coordinates": [ 76.505356, 18.245655 ] } },
{ "type": "Feature", "properties": { "Place Name": "Banswara, Rajasthan, India", "Longitude": 74.43383, "Latitude": 23.546757 }, "geometry": { "type": "Point", "coordinates": [ 74.43383, 23.546757 ] } },
{ "type": "Feature", "properties": { "Place Name": "Barh, Bihar, India", "Longitude": 85.709091, "Latitude": 25.477585 }, "geometry": { "type": "Point", "coordinates": [ 85.709091, 25.477585 ] } },
{ "type": "Feature", "properties": { "Place Name": "Barjora, West Bengal, India", "Longitude": 87.287018, "Latitude": 23.427221 }, "geometry": { "type": "Point", "coordinates": [ 87.287018, 23.427221 ] } },
{ "type": "Feature", "properties": { "Place Name": "Basirhat, West Bengal, India", "Longitude": 88.86718, "Latitude": 22.657402 }, "geometry": { "type": "Point", "coordinates": [ 88.86718, 22.657402 ] } },
{ "type": "Feature", "properties": { "Place Name": "Batumi, Adjara, Georgia", "Longitude": 41.6399, "Latitude": 41.643414 }, "geometry": { "type": "Point", "coordinates": [ 41.6399, 41.643414 ] } },
{ "type": "Feature", "properties": { "Place Name": "Belgaum, Karnataka, India", "Longitude": 74.498703, "Latitude": 15.852792 }, "geometry": { "type": "Point", "coordinates": [ 74.498703, 15.852792 ] } },
{ "type": "Feature", "properties": { "Place Name": "Bhimavaram, Andhra Pradesh, India", "Longitude": 81.52124, "Latitude": 16.544893 }, "geometry": { "type": "Point", "coordinates": [ 81.52124, 16.544893 ] } },
{ "type": "Feature", "properties": { "Place Name": "Bhubaneswar, Odisha, India", "Longitude": 85.824539, "Latitude": 20.296059 }, "geometry": { "type": "Point", "coordinates": [ 85.824539, 20.296059 ] } },
{ "type": "Feature", "properties": { "Place Name": "Bhusawal, Maharashtra, India", "Longitude": 75.801094, "Latitude": 21.045521 }, "geometry": { "type": "Point", "coordinates": [ 75.801094, 21.045521 ] } },
{ "type": "Feature", "properties": { "Place Name": "Bokaro Steel City, Jharkhand, India", "Longitude": 86.151115, "Latitude": 23.669296 }, "geometry": { "type": "Point", "coordinates": [ 86.151115, 23.669296 ] } },
{ "type": "Feature", "properties": { "Place Name": "Chalakudy, Kerala, India", "Longitude": 76.331978, "Latitude": 10.311879 }, "geometry": { "type": "Point", "coordinates": [ 76.331978, 10.311879 ] } },
{ "type": "Feature", "properties": { "Place Name": "Channapatna, Karnataka, India", "Longitude": 77.208946, "Latitude": 12.651805 }, "geometry": { "type": "Point", "coordinates": [ 77.208946, 12.651805 ] } },
{ "type": "Feature", "properties": { "Place Name": "Chatrapur, Odisha, India", "Longitude": 84.986732, "Latitude": 19.354979 }, "geometry": { "type": "Point", "coordinates": [ 84.986732, 19.354979 ] } },
{ "type": "Feature", "properties": { "Place Name": "Chikkaballapura, Karnataka, India", "Longitude": 77.727478, "Latitude": 13.432515 }, "geometry": { "type": "Point", "coordinates": [ 77.727478, 13.432515 ] } },
{ "type": "Feature", "properties": { "Place Name": "Chirala, Andhra Pradesh, India", "Longitude": 80.355377, "Latitude": 15.812074 }, "geometry": { "type": "Point", "coordinates": [ 80.355377, 15.812074 ] } },
{ "type": "Feature", "properties": { "Place Name": "Chittorgarh, Rajasthan, India", "Longitude": 74.629997, "Latitude": 24.879999 }, "geometry": { "type": "Point", "coordinates": [ 74.629997, 24.879999 ] } },
{ "type": "Feature", "properties": { "Place Name": "Delhi, the National Capital Territory of Delhi, India", "Longitude": 77.230003, "Latitude": 28.610001 }, "geometry": { "type": "Point", "coordinates": [ 77.230003, 28.610001 ] } },
{ "type": "Feature", "properties": { "Place Name": "Dhanpuri, Madhya Pradesh, India", "Longitude": 81.565125, "Latitude": 23.173939 }, "geometry": { "type": "Point", "coordinates": [ 81.565125, 23.173939 ] } },
{ "type": "Feature", "properties": { "Place Name": "Dharmavaram, Andhra Pradesh, India", "Longitude": 77.712616, "Latitude": 14.413745 }, "geometry": { "type": "Point", "coordinates": [ 77.712616, 14.413745 ] } },
{ "type": "Feature", "properties": { "Place Name": "Domchanch, Jharkhand, India", "Longitude": 85.688744, "Latitude": 24.47438 }, "geometry": { "type": "Point", "coordinates": [ 85.688744, 24.47438 ] } },
{ "type": "Feature", "properties": { "Place Name": "Durg, Chhattisgarh, India", "Longitude": 81.28492, "Latitude": 21.190449 }, "geometry": { "type": "Point", "coordinates": [ 81.28492, 21.190449 ] } },
{ "type": "Feature", "properties": { "Place Name": "Gohana, Haryana, India", "Longitude": 76.693245, "Latitude": 29.138407 }, "geometry": { "type": "Point", "coordinates": [ 76.693245, 29.138407 ] } },
{ "type": "Feature", "properties": { "Place Name": "Gokak, Karnataka, India", "Longitude": 74.833298, "Latitude": 16.1667 }, "geometry": { "type": "Point", "coordinates": [ 74.833298, 16.1667 ] } },
{ "type": "Feature", "properties": { "Place Name": "Gola Gokarannath, Uttar Pradesh, India", "Longitude": 80.471588, "Latitude": 28.078636 }, "geometry": { "type": "Point", "coordinates": [ 80.471588, 28.078636 ] } },
{ "type": "Feature", "properties": { "Place Name": "Gondal, Gujarat, India", "Longitude": 70.792297, "Latitude": 21.961946 }, "geometry": { "type": "Point", "coordinates": [ 70.792297, 21.961946 ] } },
{ "type": "Feature", "properties": { "Place Name": "Goregaon, Mumbai, Maharashtra, India", "Longitude": 72.849998, "Latitude": 19.155001 }, "geometry": { "type": "Point", "coordinates": [ 72.849998, 19.155001 ] } },
{ "type": "Feature", "properties": { "Place Name": "Gudur, Andhra Pradesh, India", "Longitude": 79.850388, "Latitude": 14.146319 }, "geometry": { "type": "Point", "coordinates": [ 79.850388, 14.146319 ] } },
{ "type": "Feature", "properties": { "Place Name": "Guntakal, Andhra Pradesh, India", "Longitude": 77.373627, "Latitude": 15.167409 }, "geometry": { "type": "Point", "coordinates": [ 77.373627, 15.167409 ] } },
{ "type": "Feature", "properties": { "Place Name": "Gurdaspur, Punjab, India", "Longitude": 75.405334, "Latitude": 32.041943 }, "geometry": { "type": "Point", "coordinates": [ 75.405334, 32.041943 ] } },
{ "type": "Feature", "properties": { "Place Name": "Harihar, Karnataka, India", "Longitude": 75.801094, "Latitude": 14.530457 }, "geometry": { "type": "Point", "coordinates": [ 75.801094, 14.530457 ] } },
{ "type": "Feature", "properties": { "Place Name": "Haringhata, West Bengal, India", "Longitude": 88.567406, "Latitude": 22.96051 }, "geometry": { "type": "Point", "coordinates": [ 88.567406, 22.96051 ] } },
{ "type": "Feature", "properties": { "Place Name": "Harnaut, Bihar, India", "Longitude": 85.53006, "Latitude": 25.369179 }, "geometry": { "type": "Point", "coordinates": [ 85.53006, 25.369179 ] } },
{ "type": "Feature", "properties": { "Place Name": "Himmatnagar, Gujarat, India", "Longitude": 72.969818, "Latitude": 23.597969 }, "geometry": { "type": "Point", "coordinates": [ 72.969818, 23.597969 ] } },
{ "type": "Feature", "properties": { "Place Name": "Hodal, Haryana, India", "Longitude": 77.384117, "Latitude": 27.897551 }, "geometry": { "type": "Point", "coordinates": [ 77.384117, 27.897551 ] } },
{ "type": "Feature", "properties": { "Place Name": "Hoshangabad, Madhya Pradesh, India", "Longitude": 77.736969, "Latitude": 22.744108 }, "geometry": { "type": "Point", "coordinates": [ 77.736969, 22.744108 ] } },
{ "type": "Feature", "properties": { "Place Name": "Huliyar, Karnataka, India", "Longitude": 76.540154, "Latitude": 13.583274 }, "geometry": { "type": "Point", "coordinates": [ 76.540154, 13.583274 ] } },
{ "type": "Feature", "properties": { "Place Name": "Jadugora, Jharkhand, India", "Longitude": 86.352882, "Latitude": 22.656015 }, "geometry": { "type": "Point", "coordinates": [ 86.352882, 22.656015 ] } },
{ "type": "Feature", "properties": { "Place Name": "Jagadhri, Haryana, India", "Longitude": 77.299492, "Latitude": 30.172716 }, "geometry": { "type": "Point", "coordinates": [ 77.299492, 30.172716 ] } },
{ "type": "Feature", "properties": { "Place Name": "Jalgaon Jamod, Maharashtra, India", "Longitude": 76.532028, "Latitude": 21.04954 }, "geometry": { "type": "Point", "coordinates": [ 76.532028, 21.04954 ] } },
{ "type": "Feature", "properties": { "Place Name": "Jalpaiguri, West Bengal, India", "Longitude": 88.719391, "Latitude": 26.540457 }, "geometry": { "type": "Point", "coordinates": [ 88.719391, 26.540457 ] } },
{ "type": "Feature", "properties": { "Place Name": "Jaysingpur, Maharashtra, India", "Longitude": 74.556374, "Latitude": 16.779877 }, "geometry": { "type": "Point", "coordinates": [ 74.556374, 16.779877 ] } },
{ "type": "Feature", "properties": { "Place Name": "Jetpur, Gujarat, India", "Longitude": 70.627625, "Latitude": 21.761524 }, "geometry": { "type": "Point", "coordinates": [ 70.627625, 21.761524 ] } },
{ "type": "Feature", "properties": { "Place Name": "Jorapokhar, Jharkhand, India", "Longitude": 85.760651, "Latitude": 22.422455 }, "geometry": { "type": "Point", "coordinates": [ 85.760651, 22.422455 ] } },
{ "type": "Feature", "properties": { "Place Name": "Karaikal, Puducherry, India", "Longitude": 79.838005, "Latitude": 10.92544 }, "geometry": { "type": "Point", "coordinates": [ 79.838005, 10.92544 ] } },
{ "type": "Feature", "properties": { "Place Name": "Kavali, Andhra Pradesh, India", "Longitude": 79.992981, "Latitude": 14.913181 }, "geometry": { "type": "Point", "coordinates": [ 79.992981, 14.913181 ] } },
{ "type": "Feature", "properties": { "Place Name": "Kollam, Kerala, India", "Longitude": 76.614143, "Latitude": 8.893212 }, "geometry": { "type": "Point", "coordinates": [ 76.614143, 8.893212 ] } },
{ "type": "Feature", "properties": { "Place Name": "Konnagar, Mirpur, West Bengal, India", "Longitude": 88.319069, "Latitude": 22.700474 }, "geometry": { "type": "Point", "coordinates": [ 88.319069, 22.700474 ] } },
{ "type": "Feature", "properties": { "Place Name": "Kushtagi, Karnataka, India", "Longitude": 76.192696, "Latitude": 15.756595 }, "geometry": { "type": "Point", "coordinates": [ 76.192696, 15.756595 ] } },
{ "type": "Feature", "properties": { "Place Name": "Lalgola, West Bengal, India", "Longitude": 88.250343, "Latitude": 24.417534 }, "geometry": { "type": "Point", "coordinates": [ 88.250343, 24.417534 ] } },
{ "type": "Feature", "properties": { "Place Name": "Lucknow, Uttar Pradesh, India", "Longitude": 80.949997, "Latitude": 26.85 }, "geometry": { "type": "Point", "coordinates": [ 80.949997, 26.85 ] } },
{ "type": "Feature", "properties": { "Place Name": "Mahidpur, Madhya Pradesh, India", "Longitude": 75.659157, "Latitude": 23.486839 }, "geometry": { "type": "Point", "coordinates": [ 75.659157, 23.486839 ] } },
{ "type": "Feature", "properties": { "Place Name": "Mahuva, Gujarat, India", "Longitude": 71.771645, "Latitude": 21.105001 }, "geometry": { "type": "Point", "coordinates": [ 71.771645, 21.105001 ] } },
{ "type": "Feature", "properties": { "Place Name": "Malerkotla, Punjab, India", "Longitude": 75.890121, "Latitude": 30.525005 }, "geometry": { "type": "Point", "coordinates": [ 75.890121, 30.525005 ] } },
{ "type": "Feature", "properties": { "Place Name": "Manikchak, West Bengal, India", "Longitude": 87.900375, "Latitude": 25.077787 }, "geometry": { "type": "Point", "coordinates": [ 87.900375, 25.077787 ] } },
{ "type": "Feature", "properties": { "Place Name": "Markapur, Andhra Pradesh, India", "Longitude": 79.259491, "Latitude": 15.764501 }, "geometry": { "type": "Point", "coordinates": [ 79.259491, 15.764501 ] } },
{ "type": "Feature", "properties": { "Place Name": "Medinipur, West Bengal, India", "Longitude": 87.321487, "Latitude": 22.430889 }, "geometry": { "type": "Point", "coordinates": [ 87.321487, 22.430889 ] } },
{ "type": "Feature", "properties": { "Place Name": "Mettur, Tamil Nadu, India", "Longitude": 77.800781, "Latitude": 11.786253 }, "geometry": { "type": "Point", "coordinates": [ 77.800781, 11.786253 ] } },
{ "type": "Feature", "properties": { "Place Name": "Mumbai, Maharashtra, India", "Longitude": 72.877426, "Latitude": 19.07609 }, "geometry": { "type": "Point", "coordinates": [ 72.877426, 19.07609 ] } },
{ "type": "Feature", "properties": { "Place Name": "Munger, Bihar, India", "Longitude": 86.474373, "Latitude": 25.37571 }, "geometry": { "type": "Point", "coordinates": [ 86.474373, 25.37571 ] } },
{ "type": "Feature", "properties": { "Place Name": "Nandyal, Andhra Pradesh, India", "Longitude": 78.483093, "Latitude": 15.478569 }, "geometry": { "type": "Point", "coordinates": [ 78.483093, 15.478569 ] } },
{ "type": "Feature", "properties": { "Place Name": "Nanjangud, Mysore, Karnataka, India", "Longitude": 76.68, "Latitude": 12.12 }, "geometry": { "type": "Point", "coordinates": [ 76.68, 12.12 ] } },
{ "type": "Feature", "properties": { "Place Name": "Orai, Uttar Pradesh, India", "Longitude": 79.450035, "Latitude": 25.989836 }, "geometry": { "type": "Point", "coordinates": [ 79.450035, 25.989836 ] } },
{ "type": "Feature", "properties": { "Place Name": "Pakur, Jharkhand, India", "Longitude": 87.849251, "Latitude": 24.633568 }, "geometry": { "type": "Point", "coordinates": [ 87.849251, 24.633568 ] } },
{ "type": "Feature", "properties": { "Place Name": "Pali, Rajasthan, India", "Longitude": 73.323685, "Latitude": 25.771315 }, "geometry": { "type": "Point", "coordinates": [ 73.323685, 25.771315 ] } },
{ "type": "Feature", "properties": { "Place Name": "Paltan Bazaar, Guwahati, Assam, India", "Longitude": 91.754723, "Latitude": 26.182245 }, "geometry": { "type": "Point", "coordinates": [ 91.754723, 26.182245 ] } },
{ "type": "Feature", "properties": { "Place Name": "Palwal, Haryana, India", "Longitude": 77.332024, "Latitude": 28.148735 }, "geometry": { "type": "Point", "coordinates": [ 77.332024, 28.148735 ] } },
{ "type": "Feature", "properties": { "Place Name": "Patan, Gujarat, India", "Longitude": 72.126625, "Latitude": 23.849325 }, "geometry": { "type": "Point", "coordinates": [ 72.126625, 23.849325 ] } },
{ "type": "Feature", "properties": { "Place Name": "Pindwara, Rajasthan, India", "Longitude": 73.055, "Latitude": 24.7945 }, "geometry": { "type": "Point", "coordinates": [ 73.055, 24.7945 ] } },
{ "type": "Feature", "properties": { "Place Name": "Port Blair, Andaman and Nicobar Islands, India", "Longitude": 92.726486, "Latitude": 11.623377 }, "geometry": { "type": "Point", "coordinates": [ 92.726486, 11.623377 ] } },
{ "type": "Feature", "properties": { "Place Name": "Proddatur, Andhra Pradesh, India", "Longitude": 78.552757, "Latitude": 14.752805 }, "geometry": { "type": "Point", "coordinates": [ 78.552757, 14.752805 ] } },
{ "type": "Feature", "properties": { "Place Name": "Raipur, Chhattisgarh, India", "Longitude": 81.629997, "Latitude": 21.25 }, "geometry": { "type": "Point", "coordinates": [ 81.629997, 21.25 ] } },
{ "type": "Feature", "properties": { "Place Name": "Ramanagara, Karnataka, India", "Longitude": 77.281296, "Latitude": 12.715035 }, "geometry": { "type": "Point", "coordinates": [ 77.281296, 12.715035 ] } },
{ "type": "Feature", "properties": { "Place Name": "Ranchi, Jharkhand, India", "Longitude": 85.296013, "Latitude": 23.344315 }, "geometry": { "type": "Point", "coordinates": [ 85.296013, 23.344315 ] } },
{ "type": "Feature", "properties": { "Place Name": "Ranebennur, Karnataka, India", "Longitude": 75.621788, "Latitude": 14.623801 }, "geometry": { "type": "Point", "coordinates": [ 75.621788, 14.623801 ] } },
{ "type": "Feature", "properties": { "Place Name": "Rasayani, Maharashtra, India", "Longitude": 73.176132, "Latitude": 18.901457 }, "geometry": { "type": "Point", "coordinates": [ 73.176132, 18.901457 ] } },
{ "type": "Feature", "properties": { "Place Name": "Ratnagiri, Maharashtra, India", "Longitude": 73.300003, "Latitude": 16.994444 }, "geometry": { "type": "Point", "coordinates": [ 73.300003, 16.994444 ] } },
{ "type": "Feature", "properties": { "Place Name": "RL Infotechh & Solutions, Durgapur, India", "Longitude": 87.311897, "Latitude": 23.520399 }, "geometry": { "type": "Point", "coordinates": [ 87.311897, 23.520399 ] } },
{ "type": "Feature", "properties": { "Place Name": "Roorkee, Uttarakhand, India", "Longitude": 77.888, "Latitude": 29.854263 }, "geometry": { "type": "Point", "coordinates": [ 77.888, 29.854263 ] } },
{ "type": "Feature", "properties": { "Place Name": "Sagar, Karnataka, India", "Longitude": 75.040298, "Latitude": 14.16704 }, "geometry": { "type": "Point", "coordinates": [ 75.040298, 14.16704 ] } },
{ "type": "Feature", "properties": { "Place Name": "Saint Dnyaneshwar Garden and Paithan park, Paithen, Maharashtra, India", "Longitude": 75.380768, "Latitude": 19.487707 }, "geometry": { "type": "Point", "coordinates": [ 75.380768, 19.487707 ] } },
{ "type": "Feature", "properties": { "Place Name": "Sambhal, Uttar Pradesh, India", "Longitude": 78.571762, "Latitude": 28.590361 }, "geometry": { "type": "Point", "coordinates": [ 78.571762, 28.590361 ] } },
{ "type": "Feature", "properties": { "Place Name": "Sardarshahar, Rajasthan, India", "Longitude": 74.493011, "Latitude": 28.440554 }, "geometry": { "type": "Point", "coordinates": [ 74.493011, 28.440554 ] } },
{ "type": "Feature", "properties": { "Place Name": "Shikohabad, Uttar Pradesh, India", "Longitude": 78.584602, "Latitude": 27.108416 }, "geometry": { "type": "Point", "coordinates": [ 78.584602, 27.108416 ] } },
{ "type": "Feature", "properties": { "Place Name": "Siddipet, Telangana, India", "Longitude": 78.852074, "Latitude": 18.101904 }, "geometry": { "type": "Point", "coordinates": [ 78.852074, 18.101904 ] } },
{ "type": "Feature", "properties": { "Place Name": "Sinnar, Maharashtra, India", "Longitude": 74.000633, "Latitude": 19.85306 }, "geometry": { "type": "Point", "coordinates": [ 74.000633, 19.85306 ] } },
{ "type": "Feature", "properties": { "Place Name": "Sirohi, Rajasthan, India", "Longitude": 72.858894, "Latitude": 24.882618 }, "geometry": { "type": "Point", "coordinates": [ 72.858894, 24.882618 ] } },
{ "type": "Feature", "properties": { "Place Name": "Surajpur, Chhattisgarh, India", "Longitude": 82.87056, "Latitude": 23.223047 }, "geometry": { "type": "Point", "coordinates": [ 82.87056, 23.223047 ] } },
{ "type": "Feature", "properties": { "Place Name": "Surendranagar, Gujarat, India", "Longitude": 71.637077, "Latitude": 22.728392 }, "geometry": { "type": "Point", "coordinates": [ 71.637077, 22.728392 ] } },
{ "type": "Feature", "properties": { "Place Name": "Suri, West Bengal, India", "Longitude": 87.52462, "Latitude": 23.905445 }, "geometry": { "type": "Point", "coordinates": [ 87.52462, 23.905445 ] } },
{ "type": "Feature", "properties": { "Place Name": "Suryapet, Telangana, India", "Longitude": 79.623924, "Latitude": 17.143908 }, "geometry": { "type": "Point", "coordinates": [ 79.623924, 17.143908 ] } },
{ "type": "Feature", "properties": { "Place Name": "Suti, West Bengal, India", "Longitude": 88.024338, "Latitude": 24.618393 }, "geometry": { "type": "Point", "coordinates": [ 88.024338, 24.618393 ] } },
{ "type": "Feature", "properties": { "Place Name": "Thiruvalla, Kerala, India", "Longitude": 76.574059, "Latitude": 9.383452 }, "geometry": { "type": "Point", "coordinates": [ 76.574059, 9.383452 ] } },
{ "type": "Feature", "properties": { "Place Name": "Tirumangalam, Tamil Nadu, India", "Longitude": 77.986565, "Latitude": 9.823619 }, "geometry": { "type": "Point", "coordinates": [ 77.986565, 9.823619 ] } },
{ "type": "Feature", "properties": { "Place Name": "Udupi, Karnataka, India", "Longitude": 74.742142, "Latitude": 13.340881 }, "geometry": { "type": "Point", "coordinates": [ 74.742142, 13.340881 ] } },
{ "type": "Feature", "properties": { "Place Name": "Vizianagaram, Andhra Pradesh, India", "Longitude": 83.395554, "Latitude": 18.106659 }, "geometry": { "type": "Point", "coordinates": [ 83.395554, 18.106659 ] } },
{ "type": "Feature", "properties": { "Place Name": "Yavatmal, Maharashtra, India", "Longitude": 78.120407, "Latitude": 20.388794 }, "geometry": { "type": "Point", "coordinates": [ 78.120407, 20.388794 ] } }
]
}
